[
  { "name": "Hà Nội", "lat": 21.0278, "lng": 105.8342 },
  { "name": "TP. Hồ Chí Minh", "lat": 10.7769, "lng": 106.7009 },
  { "name": "Đà Nẵng", "lat": 16.0544, "lng": 108.2022 },
  { "name": "Hải Phòng", "lat": 20.8449, "lng": 106.6881 },
  { "name": "Cần Thơ", "lat": 10.0452, "lng": 105.7469 }
]
